{
"type": "FeatureCollection",
"features": [
{ "type": "Feature", "properties": { "ID": "U101022", "站名_202307": "捷運公館站(2號出口)", "週間週末": "weekend", "Capacity": 99 }, "geometry": { "type": "Point", "coordinates": [ 121.53438, 25.01491 ] } },
{ "type": "Feature", "properties": { "ID": "U101033", "站名_202307": "臺大男六舍前", "週間週末": "weekend", "Capacity": 46 }, "geometry": { "type": "Point", "coordinates": [ 121.5452, 25.01664 ] } },
{ "type": "Feature", "properties": { "ID": "U101095", "站名_202307": "芳和國中", "週間週末": "weekday", "Capacity": 28 }, "geometry": { "type": "Point", "coordinates": [ 121.55013, 25.0189 ] } },
{ "type": "Feature", "properties": { "ID": "U101097", "站名_202307": "臥龍樂業街口", "週間週末": "weekday", "Capacity": 36 }, "geometry": { "type": "Point", "coordinates": [ 121.55558, 25.01856 ] } },
{ "type": "Feature", "properties": { "ID": "U101099", "站名_202307": "嘉興公園", "週間週末": "weekday", "Capacity": 44 }, "geometry": { "type": "Point", "coordinates": [ 121.55211, 25.021 ] } },
{ "type": "Feature", "properties": { "ID": "U101099", "站名_202307": "嘉興公園", "週間週末": "weekend", "Capacity": 44 }, "geometry": { "type": "Point", "coordinates": [ 121.55211, 25.021 ] } },
{ "type": "Feature", "properties": { "ID": "U101107", "站名_202307": "和平龍泉街口", "週間週末": "weekend", "Capacity": 34 }, "geometry": { "type": "Point", "coordinates": [ 121.52971, 25.02638 ] } },
{ "type": "Feature", "properties": { "ID": "U101116", "站名_202307": "金華公園", "週間週末": "weekend", "Capacity": 35 }, "geometry": { "type": "Point", "coordinates": [ 121.53107, 25.02984 ] } },
{ "type": "Feature", "properties": { "ID": "U101125", "站名_202307": "臨江街夜市(通化街101巷口)", "週間週末": "weekday", "Capacity": 30 }, "geometry": { "type": "Point", "coordinates": [ 121.55406, 25.02952 ] } },
{ "type": "Feature", "properties": { "ID": "U101181", "站名_202307": "捷運公館站(3號出口)", "週間週末": "weekend", "Capacity": 90 }, "geometry": { "type": "Point", "coordinates": [ 121.53374, 25.01551 ] } },
{ "type": "Feature", "properties": { "ID": "U103001", "站名_202307": "延平國宅", "週間週末": "weekday", "Capacity": 30 }, "geometry": { "type": "Point", "coordinates": [ 121.51121, 25.07894 ] } },
{ "type": "Feature", "properties": { "ID": "U103001", "站名_202307": "延平國宅", "週間週末": "weekend", "Capacity": 30 }, "geometry": { "type": "Point", "coordinates": [ 121.51121, 25.07894 ] } },
{ "type": "Feature", "properties": { "ID": "U103004", "站名_202307": "民族延平路口", "週間週末": "weekday", "Capacity": 23 }, "geometry": { "type": "Point", "coordinates": [ 121.5107, 25.06864 ] } },
{ "type": "Feature", "properties": { "ID": "U103004", "站名_202307": "民族延平路口", "週間週末": "weekend", "Capacity": 23 }, "geometry": { "type": "Point", "coordinates": [ 121.5107, 25.06864 ] } },
{ "type": "Feature", "properties": { "ID": "U103007", "站名_202307": "陳天來故居", "週間週末": "weekend", "Capacity": 18 }, "geometry": { "type": "Point", "coordinates": [ 121.50895, 25.05601 ] } },
{ "type": "Feature", "properties": { "ID": "U103008", "站名_202307": "臺北孔廟", "週間週末": "weekend", "Capacity": 27 }, "geometry": { "type": "Point", "coordinates": [ 121.51583, 25.07378 ] } },
{ "type": "Feature", "properties": { "ID": "U103010", "站名_202307": "酒泉延平路口", "週間週末": "weekday", "Capacity": 26 }, "geometry": { "type": "Point", "coordinates": [ 121.51057, 25.0722 ] } },
{ "type": "Feature", "properties": { "ID": "U103020", "站名_202307": "民權迪化街口", "週間週末": "weekday", "Capacity": 23 }, "geometry": { "type": "Point", "coordinates": [ 121.50943, 25.06327 ] } },
{ "type": "Feature", "properties": { "ID": "U103030", "站名_202307": "永樂市場", "週間週末": "weekday", "Capacity": 38 }, "geometry": { "type": "Point", "coordinates": [ 121.51052, 25.05454 ] } },
{ "type": "Feature", "properties": { "ID": "U103030", "站名_202307": "永樂市場", "週間週末": "weekend", "Capacity": 38 }, "geometry": { "type": "Point", "coordinates": [ 121.51052, 25.05454 ] } },
{ "type": "Feature", "properties": { "ID": "U103038", "站名_202307": "國順公園", "週間週末": "weekend", "Capacity": 20 }, "geometry": { "type": "Point", "coordinates": [ 121.51078, 25.06594 ] } },
{ "type": "Feature", "properties": { "ID": "U103041", "站名_202307": "迪化休閒運動公園", "週間週末": "weekend", "Capacity": 15 }, "geometry": { "type": "Point", "coordinates": [ 121.5115, 25.07491 ] } },
{ "type": "Feature", "properties": { "ID": "U103045", "站名_202307": "歸綏戲曲公園", "週間週末": "weekday", "Capacity": 20 }, "geometry": { "type": "Point", "coordinates": [ 121.51353, 25.05805 ] } },
{ "type": "Feature", "properties": { "ID": "U103057", "站名_202307": "捷運圓山站(2號出口)", "週間週末": "weekday", "Capacity": 37 }, "geometry": { "type": "Point", "coordinates": [ 121.51929, 25.07182 ] } },
{ "type": "Feature", "properties": { "ID": "U103057", "站名_202307": "捷運圓山站(2號出口)", "週間週末": "weekend", "Capacity": 37 }, "geometry": { "type": "Point", "coordinates": [ 121.51929, 25.07182 ] } },
{ "type": "Feature", "properties": { "ID": "U103058", "站名_202307": "樹德公園", "週間週末": "weekday", "Capacity": 14 }, "geometry": { "type": "Point", "coordinates": [ 121.5165, 25.06647 ] } },
{ "type": "Feature", "properties": { "ID": "U104001", "站名_202307": "劍潭抽水站", "週間週末": "weekend", "Capacity": 17 }, "geometry": { "type": "Point", "coordinates": [ 121.51784, 25.08128 ] } },
{ "type": "Feature", "properties": { "ID": "U104002", "站名_202307": "通河東街大南路口", "週間週末": "weekday", "Capacity": 15 }, "geometry": { "type": "Point", "coordinates": [ 121.51542, 25.08914 ] } },
{ "type": "Feature", "properties": { "ID": "U104003", "站名_202307": "福港街停車場", "週間週末": "weekday", "Capacity": 22 }, "geometry": { "type": "Point", "coordinates": [ 121.51901, 25.08695 ] } },
{ "type": "Feature", "properties": { "ID": "U104004", "站名_202307": "百齡國小", "週間週末": "weekday", "Capacity": 50 }, "geometry": { "type": "Point", "coordinates": [ 121.51918, 25.08521 ] } },
{ "type": "Feature", "properties": { "ID": "U104004", "站名_202307": "百齡國小", "週間週末": "weekend", "Capacity": 50 }, "geometry": { "type": "Point", "coordinates": [ 121.51918, 25.08521 ] } },
{ "type": "Feature", "properties": { "ID": "U104006", "站名_202307": "天和公園", "週間週末": "weekend", "Capacity": 13 }, "geometry": { "type": "Point", "coordinates": [ 121.53342, 25.12001 ] } },
{ "type": "Feature", "properties": { "ID": "U104008", "站名_202307": "天母運動公園", "週間週末": "weekday", "Capacity": 27 }, "geometry": { "type": "Point", "coordinates": [ 121.53414, 25.11633 ] } },
{ "type": "Feature", "properties": { "ID": "U104008", "站名_202307": "天母運動公園", "週間週末": "weekend", "Capacity": 27 }, "geometry": { "type": "Point", "coordinates": [ 121.53414, 25.11633 ] } },
{ "type": "Feature", "properties": { "ID": "U104009", "站名_202307": "臺北市立大學(天母校區)", "週間週末": "weekday", "Capacity": 23 }, "geometry": { "type": "Point", "coordinates": [ 121.53718, 25.11356 ] } },
{ "type": "Feature", "properties": { "ID": "U104009", "站名_202307": "臺北市立大學(天母校區)", "週間週末": "weekend", "Capacity": 23 }, "geometry": { "type": "Point", "coordinates": [ 121.53718, 25.11356 ] } },
{ "type": "Feature", "properties": { "ID": "U104012", "站名_202307": "天母棒球場", "週間週末": "weekend", "Capacity": 26 }, "geometry": { "type": "Point", "coordinates": [ 121.53195, 25.11341 ] } },
{ "type": "Feature", "properties": { "ID": "U104014", "站名_202307": "蘭興公園", "週間週末": "weekday", "Capacity": 48 }, "geometry": { "type": "Point", "coordinates": [ 121.52589, 25.11184 ] } },
{ "type": "Feature", "properties": { "ID": "U104021", "站名_202307": "芝山抽水站", "週間週末": "weekday", "Capacity": 21 }, "geometry": { "type": "Point", "coordinates": [ 121.52832, 25.10155 ] } },
{ "type": "Feature", "properties": { "ID": "U104023", "站名_202307": "華齡公園", "週間週末": "weekday", "Capacity": 25 }, "geometry": { "type": "Point", "coordinates": [ 121.52069, 25.08302 ] } },
{ "type": "Feature", "properties": { "ID": "U104023", "站名_202307": "華齡公園", "週間週末": "weekend", "Capacity": 25 }, "geometry": { "type": "Point", "coordinates": [ 121.52069, 25.08302 ] } },
{ "type": "Feature", "properties": { "ID": "U104028", "站名_202307": "捷運芝山站(2號出口)", "週間週末": "weekend", "Capacity": 21 }, "geometry": { "type": "Point", "coordinates": [ 121.52219, 25.10364 ] } },
{ "type": "Feature", "properties": { "ID": "U104029", "站名_202307": "臺灣戲曲中心", "週間週末": "weekday", "Capacity": 14 }, "geometry": { "type": "Point", "coordinates": [ 121.51979, 25.10208 ] } },
{ "type": "Feature", "properties": { "ID": "U104030", "站名_202307": "捷運劍潭站(2號出口)", "週間週末": "weekday", "Capacity": 79 }, "geometry": { "type": "Point", "coordinates": [ 121.52455, 25.08288 ] } },
{ "type": "Feature", "properties": { "ID": "U104030", "站名_202307": "捷運劍潭站(2號出口)", "週間週末": "weekend", "Capacity": 79 }, "geometry": { "type": "Point", "coordinates": [ 121.52455, 25.08288 ] } },
{ "type": "Feature", "properties": { "ID": "U104032", "站名_202307": "志成公園", "週間週末": "weekday", "Capacity": 23 }, "geometry": { "type": "Point", "coordinates": [ 121.53206, 25.09667 ] } },
{ "type": "Feature", "properties": { "ID": "U104032", "站名_202307": "志成公園", "週間週末": "weekend", "Capacity": 23 }, "geometry": { "type": "Point", "coordinates": [ 121.53206, 25.09667 ] } },
{ "type": "Feature", "properties": { "ID": "U104035", "站名_202307": "士林運動中心", "週間週末": "weekday", "Capacity": 30 }, "geometry": { "type": "Point", "coordinates": [ 121.52154, 25.08911 ] } },
{ "type": "Feature", "properties": { "ID": "U104035", "站名_202307": "士林運動中心", "週間週末": "weekend", "Capacity": 30 }, "geometry": { "type": "Point", "coordinates": [ 121.52154, 25.08911 ] } },
{ "type": "Feature", "properties": { "ID": "U104036", "站名_202307": "陽明高中", "週間週末": "weekend", "Capacity": 36 }, "geometry": { "type": "Point", "coordinates": [ 121.51706, 25.09164 ] } },
{ "type": "Feature", "properties": { "ID": "U104038", "站名_202307": "臺北市立天文館", "週間週末": "weekday", "Capacity": 31 }, "geometry": { "type": "Point", "coordinates": [ 121.51776, 25.09598 ] } },
{ "type": "Feature", "properties": { "ID": "U104043", "站名_202307": "士林高商", "週間週末": "weekday", "Capacity": 26 }, "geometry": { "type": "Point", "coordinates": [ 121.51702, 25.09435 ] } },
{ "type": "Feature", "properties": { "ID": "U104044", "站名_202307": "蘭雅公園", "週間週末": "weekend", "Capacity": 32 }, "geometry": { "type": "Point", "coordinates": [ 121.53039, 25.10991 ] } },
{ "type": "Feature", "properties": { "ID": "U104045", "站名_202307": "聯合醫院陽明院區", "週間週末": "weekday", "Capacity": 15 }, "geometry": { "type": "Point", "coordinates": [ 121.53195, 25.10455 ] } },
{ "type": "Feature", "properties": { "ID": "U104071", "站名_202307": "聖山綠地", "週間週末": "weekday", "Capacity": 15 }, "geometry": { "type": "Point", "coordinates": [ 121.53234, 25.10696 ] } },
{ "type": "Feature", "properties": { "ID": "U104072", "站名_202307": "芝山國小", "週間週末": "weekday", "Capacity": 30 }, "geometry": { "type": "Point", "coordinates": [ 121.53595, 25.11044 ] } },
{ "type": "Feature", "properties": { "ID": "U104072", "站名_202307": "芝山國小", "週間週末": "weekend", "Capacity": 30 }, "geometry": { "type": "Point", "coordinates": [ 121.53595, 25.11044 ] } },
{ "type": "Feature", "properties": { "ID": "U104077", "站名_202307": "至善臨溪路口", "週間週末": "weekday", "Capacity": 22 }, "geometry": { "type": "Point", "coordinates": [ 121.54229, 25.09709 ] } },
{ "type": "Feature", "properties": { "ID": "U104077", "站名_202307": "至善臨溪路口", "週間週末": "weekend", "Capacity": 22 }, "geometry": { "type": "Point", "coordinates": [ 121.54229, 25.09709 ] } },
{ "type": "Feature", "properties": { "ID": "U104079", "站名_202307": "東山路110巷口", "週間週末": "weekday", "Capacity": 16 }, "geometry": { "type": "Point", "coordinates": [ 121.53945, 25.11306 ] } },
{ "type": "Feature", "properties": { "ID": "U104081", "站名_202307": "雨農橋", "週間週末": "weekday", "Capacity": 16 }, "geometry": { "type": "Point", "coordinates": [ 121.53253, 25.10012 ] } },
{ "type": "Feature", "properties": { "ID": "U104082", "站名_202307": "通河街76巷/承德路四段10巷口", "週間週末": "weekend", "Capacity": 14 }, "geometry": { "type": "Point", "coordinates": [ 121.5202, 25.08019 ] } },
{ "type": "Feature", "properties": { "ID": "U104087", "站名_202307": "基河文林路口", "週間週末": "weekday", "Capacity": 16 }, "geometry": { "type": "Point", "coordinates": [ 121.5247, 25.08637 ] } },
{ "type": "Feature", "properties": { "ID": "U104087", "站名_202307": "基河文林路口", "週間週末": "weekend", "Capacity": 16 }, "geometry": { "type": "Point", "coordinates": [ 121.5247, 25.08637 ] } },
{ "type": "Feature", "properties": { "ID": "U104111", "站名_202307": "士商路40巷口", "週間週末": "weekday", "Capacity": 15 }, "geometry": { "type": "Point", "coordinates": [ 121.52054, 25.09013 ] } },
{ "type": "Feature", "properties": { "ID": "U104113", "站名_202307": "士東路91巷口", "週間週末": "weekday", "Capacity": 16 }, "geometry": { "type": "Point", "coordinates": [ 121.52914, 25.11247 ] } },
{ "type": "Feature", "properties": { "ID": "U104113", "站名_202307": "士東路91巷口", "週間週末": "weekend", "Capacity": 16 }, "geometry": { "type": "Point", "coordinates": [ 121.52914, 25.11247 ] } },
{ "type": "Feature", "properties": { "ID": "U104116", "站名_202307": "天母東路8巷/忠誠路二段154巷口", "週間週末": "weekday", "Capacity": 14 }, "geometry": { "type": "Point", "coordinates": [ 121.53113, 25.11579 ] } },
{ "type": "Feature", "properties": { "ID": "U104116", "站名_202307": "天母東路8巷/忠誠路二段154巷口", "週間週末": "weekend", "Capacity": 14 }, "geometry": { "type": "Point", "coordinates": [ 121.53113, 25.11579 ] } },
{ "type": "Feature", "properties": { "ID": "U105001", "站名_202307": "台北花木批發市場", "週間週末": "weekday", "Capacity": 32 }, "geometry": { "type": "Point", "coordinates": [ 121.54074, 25.00402 ] } },
{ "type": "Feature", "properties": { "ID": "U105001", "站名_202307": "台北花木批發市場", "週間週末": "weekend", "Capacity": 32 }, "geometry": { "type": "Point", "coordinates": [ 121.54074, 25.00402 ] } },
{ "type": "Feature", "properties": { "ID": "U105004", "站名_202307": "萬和二號公園", "週間週末": "weekday", "Capacity": 26 }, "geometry": { "type": "Point", "coordinates": [ 121.5364, 25.00154 ] } },
{ "type": "Feature", "properties": { "ID": "U105004", "站名_202307": "萬和二號公園", "週間週末": "weekend", "Capacity": 26 }, "geometry": { "type": "Point", "coordinates": [ 121.5364, 25.00154 ] } },
{ "type": "Feature", "properties": { "ID": "U105007", "站名_202307": "捷運景美站(2號出口)", "週間週末": "weekend", "Capacity": 63 }, "geometry": { "type": "Point", "coordinates": [ 121.54124, 24.99366 ] } },
{ "type": "Feature", "properties": { "ID": "U105010", "站名_202307": "興旺公園", "週間週末": "weekday", "Capacity": 30 }, "geometry": { "type": "Point", "coordinates": [ 121.55012, 25.00587 ] } },
{ "type": "Feature", "properties": { "ID": "U105011", "站名_202307": "興福國中", "週間週末": "weekend", "Capacity": 25 }, "geometry": { "type": "Point", "coordinates": [ 121.54916, 25.00465 ] } },
{ "type": "Feature", "properties": { "ID": "U105012", "站名_202307": "興隆路2段203巷", "週間週末": "weekday", "Capacity": 32 }, "geometry": { "type": "Point", "coordinates": [ 121.54709, 25.00346 ] } },
{ "type": "Feature", "properties": { "ID": "U105024", "站名_202307": "興豐公園", "週間週末": "weekday", "Capacity": 21 }, "geometry": { "type": "Point", "coordinates": [ 121.54761, 24.99982 ] } },
{ "type": "Feature", "properties": { "ID": "U105025", "站名_202307": "木柵光輝路口", "週間週末": "weekday", "Capacity": 19 }, "geometry": { "type": "Point", "coordinates": [ 121.55528, 24.98816 ] } },
{ "type": "Feature", "properties": { "ID": "U105027", "站名_202307": "和興路26巷口", "週間週末": "weekday", "Capacity": 15 }, "geometry": { "type": "Point", "coordinates": [ 121.54532, 24.98573 ] } },
{ "type": "Feature", "properties": { "ID": "U105032", "站名_202307": "忠順區民活動中心", "週間週末": "weekday", "Capacity": 15 }, "geometry": { "type": "Point", "coordinates": [ 121.56332, 24.98471 ] } },
{ "type": "Feature", "properties": { "ID": "U105070", "站名_202307": "師大公館校區學二舍", "週間週末": "weekend", "Capacity": 40 }, "geometry": { "type": "Point", "coordinates": [ 121.53419, 25.00825 ] } },
{ "type": "Feature", "properties": { "ID": "U106010", "站名_202307": "紀州庵", "週間週末": "weekend", "Capacity": 25 }, "geometry": { "type": "Point", "coordinates": [ 121.52049, 25.02092 ] } },
{ "type": "Feature", "properties": { "ID": "U106014", "站名_202307": "牯嶺公園", "週間週末": "weekday", "Capacity": 46 }, "geometry": { "type": "Point", "coordinates": [ 121.51889, 25.02338 ] } },
{ "type": "Feature", "properties": { "ID": "U106014", "站名_202307": "牯嶺公園", "週間週末": "weekend", "Capacity": 46 }, "geometry": { "type": "Point", "coordinates": [ 121.51889, 25.02338 ] } },
{ "type": "Feature", "properties": { "ID": "U106018", "站名_202307": "和平重慶路口", "週間週末": "weekday", "Capacity": 46 }, "geometry": { "type": "Point", "coordinates": [ 121.51659, 25.02723 ] } },
{ "type": "Feature", "properties": { "ID": "U106024", "站名_202307": "重慶南海路口西南側", "週間週末": "weekday", "Capacity": 16 }, "geometry": { "type": "Point", "coordinates": [ 121.51459, 25.03124 ] } },
{ "type": "Feature", "properties": { "ID": "U106025", "站名_202307": "螢橋國小", "週間週末": "weekday", "Capacity": 32 }, "geometry": { "type": "Point", "coordinates": [ 121.51402, 25.02626 ] } },
{ "type": "Feature", "properties": { "ID": "U106025", "站名_202307": "螢橋國小", "週間週末": "weekend", "Capacity": 32 }, "geometry": { "type": "Point", "coordinates": [ 121.51402, 25.02626 ] } },
{ "type": "Feature", "properties": { "ID": "U106029", "站名_202307": "南機場夜市(中華路二段)", "週間週末": "weekday", "Capacity": 41 }, "geometry": { "type": "Point", "coordinates": [ 121.50518, 25.02886 ] } },
{ "type": "Feature", "properties": { "ID": "U106029", "站名_202307": "南機場夜市(中華路二段)", "週間週末": "weekend", "Capacity": 41 }, "geometry": { "type": "Point", "coordinates": [ 121.50518, 25.02886 ] } },
{ "type": "Feature", "properties": { "ID": "U106038", "站名_202307": "南門國中", "週間週末": "weekday", "Capacity": 29 }, "geometry": { "type": "Point", "coordinates": [ 121.50834, 25.03543 ] } },
{ "type": "Feature", "properties": { "ID": "U106059", "站名_202307": "中山堂", "週間週末": "weekday", "Capacity": 29 }, "geometry": { "type": "Point", "coordinates": [ 121.51025, 25.04412 ] } },
{ "type": "Feature", "properties": { "ID": "U106067", "站名_202307": "臺北轉運站", "週間週末": "weekend", "Capacity": 68 }, "geometry": { "type": "Point", "coordinates": [ 121.51994, 25.04842 ] } },
{ "type": "Feature", "properties": { "ID": "U106090", "站名_202307": "自來水園區", "週間週末": "weekend", "Capacity": 30 }, "geometry": { "type": "Point", "coordinates": [ 121.53004, 25.01328 ] } },
{ "type": "Feature", "properties": { "ID": "U106112", "站名_202307": "忠孝西重慶南路口", "週間週末": "weekday", "Capacity": 33 }, "geometry": { "type": "Point", "coordinates": [ 121.51272, 25.04724 ] } },
{ "type": "Feature", "properties": { "ID": "U106112", "站名_202307": "忠孝西重慶南路口", "週間週末": "weekend", "Capacity": 33 }, "geometry": { "type": "Point", "coordinates": [ 121.51272, 25.04724 ] } },
{ "type": "Feature", "properties": { "ID": "U107005", "站名_202307": "培英公園", "週間週末": "weekday", "Capacity": 30 }, "geometry": { "type": "Point", "coordinates": [ 121.54462, 25.08258 ] } },
{ "type": "Feature", "properties": { "ID": "U107006", "站名_202307": "樂群二明水路口", "週間週末": "weekday", "Capacity": 20 }, "geometry": { "type": "Point", "coordinates": [ 121.55226, 25.08009 ] } },
{ "type": "Feature", "properties": { "ID": "U107011", "站名_202307": "捷運大直站(3號出口)", "週間週末": "weekday", "Capacity": 34 }, "geometry": { "type": "Point", "coordinates": [ 121.5473, 25.07923 ] } },
{ "type": "Feature", "properties": { "ID": "U107014", "站名_202307": "伊通長安路口", "週間週末": "weekday", "Capacity": 21 }, "geometry": { "type": "Point", "coordinates": [ 121.53469, 25.04833 ] } },
{ "type": "Feature", "properties": { "ID": "U107015", "站名_202307": "新生長安路口", "週間週末": "weekend", "Capacity": 20 }, "geometry": { "type": "Point", "coordinates": [ 121.52935, 25.04861 ] } },
{ "type": "Feature", "properties": { "ID": "U107022", "站名_202307": "民生建國路口", "週間週末": "weekday", "Capacity": 26 }, "geometry": { "type": "Point", "coordinates": [ 121.53692, 25.05778 ] } },
{ "type": "Feature", "properties": { "ID": "U107023", "站名_202307": "興安華城", "週間週末": "weekend", "Capacity": 62 }, "geometry": { "type": "Point", "coordinates": [ 121.54175, 25.05606 ] } },
{ "type": "Feature", "properties": { "ID": "U107024", "站名_202307": "捷運中山國中站", "週間週末": "weekday", "Capacity": 62 }, "geometry": { "type": "Point", "coordinates": [ 121.54406, 25.06106 ] } },
{ "type": "Feature", "properties": { "ID": "U107026", "站名_202307": "建國長春路口", "週間週末": "weekday", "Capacity": 16 }, "geometry": { "type": "Point", "coordinates": [ 121.53686, 25.05469 ] } },
{ "type": "Feature", "properties": { "ID": "U107027", "站名_202307": "南京建國路口", "週間週末": "weekday", "Capacity": 42 }, "geometry": { "type": "Point", "coordinates": [ 121.5368, 25.05214 ] } },
{ "type": "Feature", "properties": { "ID": "U107031", "站名_202307": "華山公園", "週間週末": "weekday", "Capacity": 19 }, "geometry": { "type": "Point", "coordinates": [ 121.5277, 25.0471 ] } },
{ "type": "Feature", "properties": { "ID": "U107049", "站名_202307": "五常國中", "週間週末": "weekday", "Capacity": 16 }, "geometry": { "type": "Point", "coordinates": [ 121.54366, 25.06505 ] } },
{ "type": "Feature", "properties": { "ID": "U107063", "站名_202307": "林森長春路口", "週間週末": "weekday", "Capacity": 28 }, "geometry": { "type": "Point", "coordinates": [ 121.52536, 25.05497 ] } },
{ "type": "Feature", "properties": { "ID": "U107063", "站名_202307": "林森長春路口", "週間週末": "weekend", "Capacity": 28 }, "geometry": { "type": "Point", "coordinates": [ 121.52536, 25.05497 ] } },
{ "type": "Feature", "properties": { "ID": "U107113", "站名_202307": "建國長春路口(北側)", "週間週末": "weekday", "Capacity": 20 }, "geometry": { "type": "Point", "coordinates": [ 121.53693, 25.05476 ] } },
{ "type": "Feature", "properties": { "ID": "U107118", "站名_202307": "林森公園", "週間週末": "weekday", "Capacity": 25 }, "geometry": { "type": "Point", "coordinates": [ 121.52581, 25.05223 ] } },
{ "type": "Feature", "properties": { "ID": "U107118", "站名_202307": "林森公園", "週間週末": "weekend", "Capacity": 25 }, "geometry": { "type": "Point", "coordinates": [ 121.52581, 25.05223 ] } },
{ "type": "Feature", "properties": { "ID": "U107132", "站名_202307": "捷運劍南路站(1號出口)", "週間週末": "weekday", "Capacity": 17 }, "geometry": { "type": "Point", "coordinates": [ 121.55548, 25.08573 ] } },
{ "type": "Feature", "properties": { "ID": "U107132", "站名_202307": "捷運劍南路站(1號出口)", "週間週末": "weekend", "Capacity": 17 }, "geometry": { "type": "Point", "coordinates": [ 121.55548, 25.08573 ] } },
{ "type": "Feature", "properties": { "ID": "U108022", "站名_202307": "洲子二號公園", "週間週末": "weekday", "Capacity": 60 }, "geometry": { "type": "Point", "coordinates": [ 121.56869, 25.07932 ] } },
{ "type": "Feature", "properties": { "ID": "U108025", "站名_202307": "成功金龍路口", "週間週末": "weekday", "Capacity": 23 }, "geometry": { "type": "Point", "coordinates": [ 121.59478, 25.08436 ] } },
{ "type": "Feature", "properties": { "ID": "U108026", "站名_202307": "碧山公園", "週間週末": "weekday", "Capacity": 31 }, "geometry": { "type": "Point", "coordinates": [ 121.59227, 25.0878 ] } },
{ "type": "Feature", "properties": { "ID": "U108026", "站名_202307": "碧山公園", "週間週末": "weekend", "Capacity": 31 }, "geometry": { "type": "Point", "coordinates": [ 121.59227, 25.0878 ] } },
{ "type": "Feature", "properties": { "ID": "U108027", "站名_202307": "金瑞公園", "週間週末": "weekday", "Capacity": 20 }, "geometry": { "type": "Point", "coordinates": [ 121.5879, 25.08785 ] } },
{ "type": "Feature", "properties": { "ID": "U108027", "站名_202307": "金瑞公園", "週間週末": "weekend", "Capacity": 20 }, "geometry": { "type": "Point", "coordinates": [ 121.5879, 25.08785 ] } },
{ "type": "Feature", "properties": { "ID": "U108033", "站名_202307": "湖光國宅", "週間週末": "weekday", "Capacity": 22 }, "geometry": { "type": "Point", "coordinates": [ 121.58079, 25.07538 ] } },
{ "type": "Feature", "properties": { "ID": "U108050", "站名_202307": "新湖三民善街口", "週間週末": "weekday", "Capacity": 15 }, "geometry": { "type": "Point", "coordinates": [ 121.57497, 25.06286 ] } },
{ "type": "Feature", "properties": { "ID": "U108082", "站名_202307": "捷運內湖站(1號出口)", "週間週末": "weekday", "Capacity": 28 }, "geometry": { "type": "Point", "coordinates": [ 121.59406, 25.08373 ] } },
{ "type": "Feature", "properties": { "ID": "U108085", "站名_202307": "金龍公園", "週間週末": "weekday", "Capacity": 15 }, "geometry": { "type": "Point", "coordinates": [ 121.59076, 25.08554 ] } },
{ "type": "Feature", "properties": { "ID": "U108086", "站名_202307": "星雲街138巷1弄口", "週間週末": "weekday", "Capacity": 15 }, "geometry": { "type": "Point", "coordinates": [ 121.59544, 25.07943 ] } },
{ "type": "Feature", "properties": { "ID": "U108086", "站名_202307": "星雲街138巷1弄口", "週間週末": "weekend", "Capacity": 15 }, "geometry": { "type": "Point", "coordinates": [ 121.59544, 25.07943 ] } },
{ "type": "Feature", "properties": { "ID": "U108090", "站名_202307": "堤頂大道新湖一路口", "週間週末": "weekday", "Capacity": 13 }, "geometry": { "type": "Point", "coordinates": [ 121.57354, 25.05892 ] } },
{ "type": "Feature", "properties": { "ID": "U108093", "站名_202307": "新湖二路250巷口", "週間週末": "weekday", "Capacity": 20 }, "geometry": { "type": "Point", "coordinates": [ 121.58262, 25.06455 ] } },
{ "type": "Feature", "properties": { "ID": "U108103", "站名_202307": "民善新湖二路口(家樂福內湖店)", "週間週末": "weekday", "Capacity": 23 }, "geometry": { "type": "Point", "coordinates": [ 121.57552, 25.06017 ] } },
{ "type": "Feature", "properties": { "ID": "U108105", "站名_202307": "陽光街161巷口", "週間週末": "weekend", "Capacity": 16 }, "geometry": { "type": "Point", "coordinates": [ 121.58584, 25.07433 ] } },
{ "type": "Feature", "properties": { "ID": "U108139", "站名_202307": "文德一號綠地", "週間週末": "weekday", "Capacity": 15 }, "geometry": { "type": "Point", "coordinates": [ 121.58302, 25.0786 ] } },
{ "type": "Feature", "properties": { "ID": "U108140", "站名_202307": "臺北花市", "週間週末": "weekday", "Capacity": 20 }, "geometry": { "type": "Point", "coordinates": [ 121.57427, 25.06265 ] } },
{ "type": "Feature", "properties": { "ID": "U109008", "站名_202307": "關渡自然公園", "週間週末": "weekday", "Capacity": 22 }, "geometry": { "type": "Point", "coordinates": [ 121.46912, 25.11884 ] } },
{ "type": "Feature", "properties": { "ID": "U109008", "站名_202307": "關渡自然公園", "週間週末": "weekend", "Capacity": 22 }, "geometry": { "type": "Point", "coordinates": [ 121.46912, 25.11884 ] } },
{ "type": "Feature", "properties": { "ID": "U109009", "站名_202307": "關渡醫院", "週間週末": "weekday", "Capacity": 14 }, "geometry": { "type": "Point", "coordinates": [ 121.4665, 25.1203 ] } },
{ "type": "Feature", "properties": { "ID": "U109009", "站名_202307": "關渡醫院", "週間週末": "weekend", "Capacity": 14 }, "geometry": { "type": "Point", "coordinates": [ 121.4665, 25.1203 ] } },
{ "type": "Feature", "properties": { "ID": "U109018", "站名_202307": "稻香重三路口", "週間週末": "weekday", "Capacity": 15 }, "geometry": { "type": "Point", "coordinates": [ 121.48967, 25.13997 ] } },
{ "type": "Feature", "properties": { "ID": "U109019", "站名_202307": "國防大學政治作戰學院", "週間週末": "weekend", "Capacity": 30 }, "geometry": { "type": "Point", "coordinates": [ 121.49345, 25.13776 ] } },
{ "type": "Feature", "properties": { "ID": "U109022", "站名_202307": "大業大同街口", "週間週末": "weekday", "Capacity": 42 }, "geometry": { "type": "Point", "coordinates": [ 121.49987, 25.13691 ] } },
{ "type": "Feature", "properties": { "ID": "U109025", "站名_202307": "捷運奇岩站(三合街)", "週間週末": "weekday", "Capacity": 40 }, "geometry": { "type": "Point", "coordinates": [ 121.50099, 25.12634 ] } },
{ "type": "Feature", "properties": { "ID": "U109032", "站名_202307": "北投運動中心", "週間週末": "weekday", "Capacity": 60 }, "geometry": { "type": "Point", "coordinates": [ 121.50962, 25.11666 ] } },
{ "type": "Feature", "properties": { "ID": "U109037", "站名_202307": "振興醫院", "週間週末": "weekday", "Capacity": 36 }, "geometry": { "type": "Point", "coordinates": [ 121.52186, 25.11753 ] } },
{ "type": "Feature", "properties": { "ID": "U109042", "站名_202307": "承德路七段280巷口", "週間週末": "weekday", "Capacity": 17 }, "geometry": { "type": "Point", "coordinates": [ 121.50576, 25.11587 ] } },
{ "type": "Feature", "properties": { "ID": "U109043", "站名_202307": "致遠一路二段11巷", "週間週末": "weekend", "Capacity": 22 }, "geometry": { "type": "Point", "coordinates": [ 121.51382, 25.11093 ] } },
{ "type": "Feature", "properties": { "ID": "U109045", "站名_202307": "中正高中", "週間週末": "weekday", "Capacity": 31 }, "geometry": { "type": "Point", "coordinates": [ 121.51654, 25.10467 ] } },
{ "type": "Feature", "properties": { "ID": "U109046", "站名_202307": "立功立德路口", "週間週末": "weekday", "Capacity": 32 }, "geometry": { "type": "Point", "coordinates": [ 121.47158, 25.12501 ] } },
{ "type": "Feature", "properties": { "ID": "U109048", "站名_202307": "陽明交大圖書館", "週間週末": "weekday", "Capacity": 37 }, "geometry": { "type": "Point", "coordinates": [ 121.51352, 25.12081 ] } },
{ "type": "Feature", "properties": { "ID": "U109057", "站名_202307": "洲美蜆仔港公園", "週間週末": "weekday", "Capacity": 20 }, "geometry": { "type": "Point", "coordinates": [ 121.51107, 25.10065 ] } },
{ "type": "Feature", "properties": { "ID": "U109068", "站名_202307": "豐年公園", "週間週末": "weekend", "Capacity": 20 }, "geometry": { "type": "Point", "coordinates": [ 121.49613, 25.13475 ] } },
{ "type": "Feature", "properties": { "ID": "U109075", "站名_202307": "捷運北投站(1號出口)", "週間週末": "weekday", "Capacity": 50 }, "geometry": { "type": "Point", "coordinates": [ 121.49862, 25.13258 ] } },
{ "type": "Feature", "properties": { "ID": "U109075", "站名_202307": "捷運北投站(1號出口)", "週間週末": "weekend", "Capacity": 50 }, "geometry": { "type": "Point", "coordinates": [ 121.49862, 25.13258 ] } },
{ "type": "Feature", "properties": { "ID": "U109082", "站名_202307": "華固創富中心", "週間週末": "weekday", "Capacity": 15 }, "geometry": { "type": "Point", "coordinates": [ 121.51244, 25.10392 ] } },
{ "type": "Feature", "properties": { "ID": "U110014", "站名_202307": "民生敦化路口", "週間週末": "weekday", "Capacity": 51 }, "geometry": { "type": "Point", "coordinates": [ 121.54897, 25.05804 ] } },
{ "type": "Feature", "properties": { "ID": "U110017", "站名_202307": "民生活動中心", "週間週末": "weekend", "Capacity": 35 }, "geometry": { "type": "Point", "coordinates": [ 121.56305, 25.05907 ] } },
{ "type": "Feature", "properties": { "ID": "U110022", "站名_202307": "民權運動公園", "週間週末": "weekend", "Capacity": 21 }, "geometry": { "type": "Point", "coordinates": [ 121.56019, 25.062 ] } },
{ "type": "Feature", "properties": { "ID": "U110023", "站名_202307": "新東公園", "週間週末": "weekend", "Capacity": 36 }, "geometry": { "type": "Point", "coordinates": [ 121.56888, 25.05925 ] } },
{ "type": "Feature", "properties": { "ID": "U110024", "站名_202307": "民生光復路口", "週間週末": "weekday", "Capacity": 31 }, "geometry": { "type": "Point", "coordinates": [ 121.55496, 25.05834 ] } },
{ "type": "Feature", "properties": { "ID": "U110025", "站名_202307": "三民公園", "週間週末": "weekday", "Capacity": 22 }, "geometry": { "type": "Point", "coordinates": [ 121.566679, 25.06128675 ] } },
{ "type": "Feature", "properties": { "ID": "U110025", "站名_202307": "三民公園", "週間週末": "weekend", "Capacity": 22 }, "geometry": { "type": "Point", "coordinates": [ 121.566679, 25.06128675 ] } },
{ "type": "Feature", "properties": { "ID": "U110032", "站名_202307": "市民東興路口", "週間週末": "weekend", "Capacity": 25 }, "geometry": { "type": "Point", "coordinates": [ 121.56586, 25.0484 ] } },
{ "type": "Feature", "properties": { "ID": "U110039", "站名_202307": "健康新城", "週間週末": "weekend", "Capacity": 35 }, "geometry": { "type": "Point", "coordinates": [ 121.56095, 25.05408 ] } },
{ "type": "Feature", "properties": { "ID": "U110040", "站名_202307": "健安新城", "週間週末": "weekday", "Capacity": 30 }, "geometry": { "type": "Point", "coordinates": [ 121.56345, 25.05606 ] } },
{ "type": "Feature", "properties": { "ID": "U110040", "站名_202307": "健安新城", "週間週末": "weekend", "Capacity": 30 }, "geometry": { "type": "Point", "coordinates": [ 121.56345, 25.05606 ] } },
{ "type": "Feature", "properties": { "ID": "U110048", "站名_202307": "敦化長春路口", "週間週末": "weekday", "Capacity": 34 }, "geometry": { "type": "Point", "coordinates": [ 121.54871, 25.0536 ] } },
{ "type": "Feature", "properties": { "ID": "U110062", "站名_202307": "捷運松山站(3號出口)", "週間週末": "weekend", "Capacity": 48 }, "geometry": { "type": "Point", "coordinates": [ 121.57746, 25.04962 ] } },
{ "type": "Feature", "properties": { "ID": "U111002", "站名_202307": "南港公園(福德街)", "週間週末": "weekday", "Capacity": 32 }, "geometry": { "type": "Point", "coordinates": [ 121.59089, 25.04128 ] } },
{ "type": "Feature", "properties": { "ID": "U111002", "站名_202307": "南港公園(福德街)", "週間週末": "weekend", "Capacity": 32 }, "geometry": { "type": "Point", "coordinates": [ 121.59089, 25.04128 ] } },
{ "type": "Feature", "properties": { "ID": "U111008", "站名_202307": "成德國中", "週間週末": "weekday", "Capacity": 26 }, "geometry": { "type": "Point", "coordinates": [ 121.5882, 25.04592 ] } },
{ "type": "Feature", "properties": { "ID": "U111011", "站名_202307": "中研院綜合體育館東側", "週間週末": "weekday", "Capacity": 30 }, "geometry": { "type": "Point", "coordinates": [ 121.61374, 25.04054 ] } },
{ "type": "Feature", "properties": { "ID": "U111012", "站名_202307": "國家生技園區", "週間週末": "weekday", "Capacity": 30 }, "geometry": { "type": "Point", "coordinates": [ 121.61145, 25.04763 ] } },
{ "type": "Feature", "properties": { "ID": "U111020", "站名_202307": "南港國小", "週間週末": "weekday", "Capacity": 30 }, "geometry": { "type": "Point", "coordinates": [ 121.61137, 25.05668 ] } },
{ "type": "Feature", "properties": { "ID": "U111028", "站名_202307": "東新國小", "週間週末": "weekday", "Capacity": 22 }, "geometry": { "type": "Point", "coordinates": [ 121.6028, 25.05507 ] } },
{ "type": "Feature", "properties": { "ID": "U111069", "站名_202307": "南港車站(興華路)", "週間週末": "weekend", "Capacity": 40 }, "geometry": { "type": "Point", "coordinates": [ 121.60633, 25.05343 ] } },
{ "type": "Feature", "properties": { "ID": "U111070", "站名_202307": "玉成公園(成福路178巷口)", "週間週末": "weekend", "Capacity": 18 }, "geometry": { "type": "Point", "coordinates": [ 121.58735, 25.04177 ] } },
{ "type": "Feature", "properties": { "ID": "U111073", "站名_202307": "成福路197巷口", "週間週末": "weekend", "Capacity": 15 }, "geometry": { "type": "Point", "coordinates": [ 121.58877, 25.04066 ] } },
{ "type": "Feature", "properties": { "ID": "U112001", "站名_202307": "黎忠區民活動中心", "週間週末": "weekday", "Capacity": 16 }, "geometry": { "type": "Point", "coordinates": [ 121.55769, 25.02035 ] } },
{ "type": "Feature", "properties": { "ID": "U112001", "站名_202307": "黎忠區民活動中心", "週間週末": "weekend", "Capacity": 16 }, "geometry": { "type": "Point", "coordinates": [ 121.55769, 25.02035 ] } },
{ "type": "Feature", "properties": { "ID": "U112006", "站名_202307": "景勤二號公園", "週間週末": "weekday", "Capacity": 41 }, "geometry": { "type": "Point", "coordinates": [ 121.55841, 25.02698 ] } },
{ "type": "Feature", "properties": { "ID": "U112007", "站名_202307": "臺北醫學大學", "週間週末": "weekday", "Capacity": 55 }, "geometry": { "type": "Point", "coordinates": [ 121.56175, 25.02668 ] } },
{ "type": "Feature", "properties": { "ID": "U112007", "站名_202307": "臺北醫學大學", "週間週末": "weekend", "Capacity": 55 }, "geometry": { "type": "Point", "coordinates": [ 121.56175, 25.02668 ] } },
{ "type": "Feature", "properties": { "ID": "U112008", "站名_202307": "三興公園", "週間週末": "weekend", "Capacity": 31 }, "geometry": { "type": "Point", "coordinates": [ 121.55932, 25.02868 ] } },
{ "type": "Feature", "properties": { "ID": "U112009", "站名_202307": "松德站", "週間週末": "weekday", "Capacity": 48 }, "geometry": { "type": "Point", "coordinates": [ 121.57396, 25.03162 ] } },
{ "type": "Feature", "properties": { "ID": "U112017", "站名_202307": "台北市災害應變中心", "週間週末": "weekday", "Capacity": 45 }, "geometry": { "type": "Point", "coordinates": [ 121.56672, 25.02868 ] } },
{ "type": "Feature", "properties": { "ID": "U112017", "站名_202307": "台北市災害應變中心", "週間週末": "weekend", "Capacity": 45 }, "geometry": { "type": "Point", "coordinates": [ 121.56672, 25.02868 ] } },
{ "type": "Feature", "properties": { "ID": "U112018", "站名_202307": "信義運動中心", "週間週末": "weekend", "Capacity": 33 }, "geometry": { "type": "Point", "coordinates": [ 121.56678, 25.03189 ] } },
{ "type": "Feature", "properties": { "ID": "U112025", "站名_202307": "松友公園", "週間週末": "weekday", "Capacity": 27 }, "geometry": { "type": "Point", "coordinates": [ 121.57636, 25.03423 ] } },
{ "type": "Feature", "properties": { "ID": "U112025", "站名_202307": "松友公園", "週間週末": "weekend", "Capacity": 27 }, "geometry": { "type": "Point", "coordinates": [ 121.57636, 25.03423 ] } },
{ "type": "Feature", "properties": { "ID": "U112026", "站名_202307": "林口公園", "週間週末": "weekday", "Capacity": 41 }, "geometry": { "type": "Point", "coordinates": [ 121.57915, 25.03894 ] } },
{ "type": "Feature", "properties": { "ID": "U112026", "站名_202307": "林口公園", "週間週末": "weekend", "Capacity": 41 }, "geometry": { "type": "Point", "coordinates": [ 121.57915, 25.03894 ] } },
{ "type": "Feature", "properties": { "ID": "U112033", "站名_202307": "市民廣場", "週間週末": "weekend", "Capacity": 30 }, "geometry": { "type": "Point", "coordinates": [ 121.56218, 25.03599 ] } },
{ "type": "Feature", "properties": { "ID": "U112040", "站名_202307": "福德公園", "週間週末": "weekday", "Capacity": 35 }, "geometry": { "type": "Point", "coordinates": [ 121.58355, 25.03841 ] } },
{ "type": "Feature", "properties": { "ID": "U112040", "站名_202307": "福德公園", "週間週末": "weekend", "Capacity": 35 }, "geometry": { "type": "Point", "coordinates": [ 121.58355, 25.03841 ] } },
{ "type": "Feature", "properties": { "ID": "U112044", "站名_202307": "福祥公園", "週間週末": "weekday", "Capacity": 19 }, "geometry": { "type": "Point", "coordinates": [ 121.57045, 25.04626 ] } },
{ "type": "Feature", "properties": { "ID": "U112045", "站名_202307": "吳興公車總站", "週間週末": "weekday", "Capacity": 56 }, "geometry": { "type": "Point", "coordinates": [ 121.56984, 25.02388 ] } },
{ "type": "Feature", "properties": { "ID": "U112045", "站名_202307": "吳興公車總站", "週間週末": "weekend", "Capacity": 56 }, "geometry": { "type": "Point", "coordinates": [ 121.56984, 25.02388 ] } },
{ "type": "Feature", "properties": { "ID": "U112046", "站名_202307": "泰和公園", "週間週末": "weekend", "Capacity": 34 }, "geometry": { "type": "Point", "coordinates": [ 121.57105, 25.0193 ] } },
{ "type": "Feature", "properties": { "ID": "U112049", "站名_202307": "松山車站", "週間週末": "weekend", "Capacity": 63 }, "geometry": { "type": "Point", "coordinates": [ 121.57841, 25.0489 ] } },
{ "type": "Feature", "properties": { "ID": "U112051", "站名_202307": "永吉松信路口", "週間週末": "weekday", "Capacity": 25 }, "geometry": { "type": "Point", "coordinates": [ 121.57207, 25.04548 ] } },
{ "type": "Feature", "properties": { "ID": "U112053", "站名_202307": "市民松信路口", "週間週末": "weekday", "Capacity": 20 }, "geometry": { "type": "Point", "coordinates": [ 121.57205, 25.04927 ] } },
{ "type": "Feature", "properties": { "ID": "U112053", "站名_202307": "市民松信路口", "週間週末": "weekend", "Capacity": 20 }, "geometry": { "type": "Point", "coordinates": [ 121.57205, 25.04927 ] } },
{ "type": "Feature", "properties": { "ID": "U112059", "站名_202307": "虎林永吉路口", "週間週末": "weekday", "Capacity": 15 }, "geometry": { "type": "Point", "coordinates": [ 121.57712, 25.04519 ] } },
{ "type": "Feature", "properties": { "ID": "U112060", "站名_202307": "永吉公園", "週間週末": "weekday", "Capacity": 18 }, "geometry": { "type": "Point", "coordinates": [ 121.57539, 25.04345 ] } },
{ "type": "Feature", "properties": { "ID": "U112060", "站名_202307": "永吉公園", "週間週末": "weekend", "Capacity": 18 }, "geometry": { "type": "Point", "coordinates": [ 121.57539, 25.04345 ] } },
{ "type": "Feature", "properties": { "ID": "U112064", "站名_202307": "捷運象山站(3號出口)", "週間週末": "weekend", "Capacity": 51 }, "geometry": { "type": "Point", "coordinates": [ 121.5712, 25.03295 ] } },
{ "type": "Feature", "properties": { "ID": "U112067", "站名_202307": "松德虎林街口", "週間週末": "weekday", "Capacity": 25 }, "geometry": { "type": "Point", "coordinates": [ 121.5762, 25.0383 ] } },
{ "type": "Feature", "properties": { "ID": "U112067", "站名_202307": "松德虎林街口", "週間週末": "weekend", "Capacity": 25 }, "geometry": { "type": "Point", "coordinates": [ 121.5762, 25.0383 ] } },
{ "type": "Feature", "properties": { "ID": "U112068", "站名_202307": "富台公園", "週間週末": "weekend", "Capacity": 25 }, "geometry": { "type": "Point", "coordinates": [ 121.57204, 25.04185 ] } },
{ "type": "Feature", "properties": { "ID": "U112071", "站名_202307": "吳興街260巷", "週間週末": "weekday", "Capacity": 32 }, "geometry": { "type": "Point", "coordinates": [ 121.5631, 25.02606 ] } },
{ "type": "Feature", "properties": { "ID": "U112076", "站名_202307": "捷運台北101/世貿站(2號出口)", "週間週末": "weekend", "Capacity": 49 }, "geometry": { "type": "Point", "coordinates": [ 121.56157, 25.0327 ] } },
{ "type": "Feature", "properties": { "ID": "U112078", "站名_202307": "吳興街284巷36弄口", "週間週末": "weekday", "Capacity": 25 }, "geometry": { "type": "Point", "coordinates": [ 121.56268, 25.02236 ] } },
{ "type": "Feature", "properties": { "ID": "U112081", "站名_202307": "松仁路95巷口", "週間週末": "weekday", "Capacity": 60 }, "geometry": { "type": "Point", "coordinates": [ 121.56866, 25.03656 ] } },
{ "type": "Feature", "properties": { "ID": "U112082", "站名_202307": "臺北南山廣場", "週間週末": "weekday", "Capacity": 55 }, "geometry": { "type": "Point", "coordinates": [ 121.56598, 25.03404 ] } },
{ "type": "Feature", "properties": { "ID": "U112082", "站名_202307": "臺北南山廣場", "週間週末": "weekend", "Capacity": 55 }, "geometry": { "type": "Point", "coordinates": [ 121.56598, 25.03404 ] } },
{ "type": "Feature", "properties": { "ID": "U112097", "站名_202307": "和平東路三段291號", "週間週末": "weekday", "Capacity": 15 }, "geometry": { "type": "Point", "coordinates": [ 121.55532, 25.02186 ] } },
{ "type": "Feature", "properties": { "ID": "U113001", "站名_202307": "德昌寶興街口(西北角)", "週間週末": "weekend", "Capacity": 15 }, "geometry": { "type": "Point", "coordinates": [ 121.49529, 25.02361 ] } },
{ "type": "Feature", "properties": { "ID": "U113002", "站名_202307": "寶興長泰街口(西南角)", "週間週末": "weekend", "Capacity": 17 }, "geometry": { "type": "Point", "coordinates": [ 121.49597, 25.0216 ] } },
{ "type": "Feature", "properties": { "ID": "U113008", "站名_202307": "國興青年路口", "週間週末": "weekend", "Capacity": 30 }, "geometry": { "type": "Point", "coordinates": [ 121.50651, 25.02594 ] } },
{ "type": "Feature", "properties": { "ID": "U113012", "站名_202307": "復華花園新城", "週間週末": "weekday", "Capacity": 28 }, "geometry": { "type": "Point", "coordinates": [ 121.50258, 25.02964 ] } },
{ "type": "Feature", "properties": { "ID": "U113012", "站名_202307": "復華花園新城", "週間週末": "weekend", "Capacity": 28 }, "geometry": { "type": "Point", "coordinates": [ 121.50258, 25.02964 ] } },
{ "type": "Feature", "properties": { "ID": "U113013", "站名_202307": "新和國小", "週間週末": "weekend", "Capacity": 20 }, "geometry": { "type": "Point", "coordinates": [ 121.50255, 25.02582 ] } },
{ "type": "Feature", "properties": { "ID": "U113019", "站名_202307": "錦德公園", "週間週末": "weekday", "Capacity": 16 }, "geometry": { "type": "Point", "coordinates": [ 121.49264, 25.02332 ] } },
{ "type": "Feature", "properties": { "ID": "U113019", "站名_202307": "錦德公園", "週間週末": "weekend", "Capacity": 16 }, "geometry": { "type": "Point", "coordinates": [ 121.49264, 25.02332 ] } },
{ "type": "Feature", "properties": { "ID": "U113022", "站名_202307": "華江高中", "週間週末": "weekday", "Capacity": 50 }, "geometry": { "type": "Point", "coordinates": [ 121.49619, 25.02744 ] } },
{ "type": "Feature", "properties": { "ID": "U113022", "站名_202307": "華江高中", "週間週末": "weekend", "Capacity": 50 }, "geometry": { "type": "Point", "coordinates": [ 121.49619, 25.02744 ] } },
{ "type": "Feature", "properties": { "ID": "U113023", "站名_202307": "西園艋舺路口", "週間週末": "weekday", "Capacity": 32 }, "geometry": { "type": "Point", "coordinates": [ 121.49757, 25.03267 ] } },
{ "type": "Feature", "properties": { "ID": "U113033", "站名_202307": "萬華青年公宅", "週間週末": "weekday", "Capacity": 23 }, "geometry": { "type": "Point", "coordinates": [ 121.50376, 25.02021 ] } },
{ "type": "Feature", "properties": { "ID": "U113035", "站名_202307": "峨嵋停車場", "週間週末": "weekend", "Capacity": 47 }, "geometry": { "type": "Point", "coordinates": [ 121.50541, 25.04441 ] } },
{ "type": "Feature", "properties": { "ID": "U113040", "站名_202307": "捷運龍山寺站(1號出口)", "週間週末": "weekday", "Capacity": 30 }, "geometry": { "type": "Point", "coordinates": [ 121.49938, 25.03535 ] } },
{ "type": "Feature", "properties": { "ID": "U113042", "站名_202307": "華西公園", "週間週末": "weekday", "Capacity": 33 }, "geometry": { "type": "Point", "coordinates": [ 121.49881, 25.03852 ] } },
{ "type": "Feature", "properties": { "ID": "U113042", "站名_202307": "華西公園", "週間週末": "weekend", "Capacity": 33 }, "geometry": { "type": "Point", "coordinates": [ 121.49881, 25.03852 ] } },
{ "type": "Feature", "properties": { "ID": "U113064", "站名_202307": "桂林昆明街口", "週間週末": "weekday", "Capacity": 20 }, "geometry": { "type": "Point", "coordinates": [ 121.50362, 25.03811 ] } },
{ "type": "Feature", "properties": { "ID": "U113064", "站名_202307": "桂林昆明街口", "週間週末": "weekend", "Capacity": 20 }, "geometry": { "type": "Point", "coordinates": [ 121.50362, 25.03811 ] } },
{ "type": "Feature", "properties": { "ID": "U113066", "站名_202307": "青年公園3號出口", "週間週末": "weekday", "Capacity": 38 }, "geometry": { "type": "Point", "coordinates": [ 121.50271, 25.02273 ] } },
{ "type": "Feature", "properties": { "ID": "U113068", "站名_202307": "捷運龍山寺站(1號出口)", "週間週末": "weekday", "Capacity": 30 }, "geometry": { "type": "Point", "coordinates": [ 121.49938, 25.03535 ] } },
{ "type": "Feature", "properties": { "ID": "U113068", "站名_202307": "捷運龍山寺站(1號出口)", "週間週末": "weekend", "Capacity": 30 }, "geometry": { "type": "Point", "coordinates": [ 121.49938, 25.03535 ] } },
{ "type": "Feature", "properties": { "ID": "U113073", "站名_202307": "青年路152巷口", "週間週末": "weekday", "Capacity": 16 }, "geometry": { "type": "Point", "coordinates": [ 121.5009, 25.01979 ] } },
{ "type": "Feature", "properties": { "ID": "U119050", "站名_202307": "臺大小福樓東側", "週間週末": "weekend", "Capacity": 31 }, "geometry": { "type": "Point", "coordinates": [ 121.5376, 25.01846 ] } },
{ "type": "Feature", "properties": { "ID": "U119052", "站名_202307": "臺大工綜館南側", "週間週末": "weekend", "Capacity": 26 }, "geometry": { "type": "Point", "coordinates": [ 121.54059, 25.01857 ] } },
{ "type": "Feature", "properties": { "ID": "U119054", "站名_202307": "臺大心理系館南側", "週間週末": "weekend", "Capacity": 30 }, "geometry": { "type": "Point", "coordinates": [ 121.5404, 25.01941 ] } },
{ "type": "Feature", "properties": { "ID": "U119068", "站名_202307": "臺大社會系館南側", "週間週末": "weekend", "Capacity": 39 }, "geometry": { "type": "Point", "coordinates": [ 121.54175, 25.01987 ] } },
{ "type": "Feature", "properties": { "ID": "U119075", "站名_202307": "臺大第一活動中心西南側", "週間週末": "weekend", "Capacity": 40 }, "geometry": { "type": "Point", "coordinates": [ 121.53995, 25.01761 ] } },
{ "type": "Feature", "properties": { "ID": "U119087", "站名_202307": "臺大總圖書館西南側", "週間週末": "weekend", "Capacity": 30 }, "geometry": { "type": "Point", "coordinates": [ 121.54031, 25.0169 ] } },
{ "type": "Feature", "properties": { "ID": "U119090", "站名_202307": "臺大新體育館東南側", "週間週末": "weekday", "Capacity": 40 }, "geometry": { "type": "Point", "coordinates": [ 121.53591, 25.02112 ] } },
{ "type": "Feature", "properties": { "ID": "U119090", "站名_202307": "臺大新體育館東南側", "週間週末": "weekend", "Capacity": 40 }, "geometry": { "type": "Point", "coordinates": [ 121.53591, 25.02112 ] } }
]
}
